[
  {"id":"norfolk","name":"Naval Station Norfolk","lat":36.95,"lon":-76.31,"type":"us-nato","subtype":"naval","status":"active","country":"US","description":"World's largest naval base. HQ US Atlantic Fleet, 2nd Fleet.","source":"official","approx":false},
  {"id":"fort_liberty","name":"Fort Liberty (Bragg)","lat":35.14,"lon":-79.0,"type":"us-nato","subtype":"army","status":"active","country":"US","description":"82nd Airborne, Special Forces. XVIII Airborne Corps.","source":"official","approx":false},
  {"id":"pendleton","name":"Camp Pendleton","lat":33.38,"lon":-117.4,"type":"us-nato","subtype":"marines","status":"active","country":"US","description":"USMC West Coast hub. 1st Marine Division.","source":"official","approx":false},
  {"id":"san_diego_nb","name":"Naval Base San Diego","lat":32.68,"lon":-117.13,"type":"us-nato","subtype":"naval","status":"active","country":"US","description":"Pacific Fleet surface force homeport.","source":"official","approx":false},
  {"id":"nellis","name":"Nellis AFB","lat":36.24,"lon":-115.03,"type":"us-nato","subtype":"airbase","status":"active","country":"US","description":"Air combat training. Red Flag exercises. F-35, F-22.","source":"official","approx":false},
  {"id":"langley_eustis","name":"Joint Base Langley-Eustis","lat":37.08,"lon":-76.36,"type":"us-nato","subtype":"airbase","status":"active","country":"US","description":"Air Combat Command HQ. F-22 Raptor wing.","source":"official","approx":false},
  {"id":"cheyenne_mtn","name":"Cheyenne Mountain SFS","lat":38.74,"lon":-104.85,"type":"us-nato","subtype":"command","status":"active","country":"US","description":"NORAD. Missile warning, space surveillance, air defense.","source":"official","approx":false},
  {"id":"peterson_sfb","name":"Peterson SFB","lat":38.82,"lon":-104.71,"type":"us-nato","subtype":"space","status":"active","country":"US","description":"US Space Command HQ. Space operations center.","source":"official","approx":false},
  {"id":"kings_bay","name":"Naval Submarine Base Kings Bay","lat":30.8,"lon":-81.52,"type":"us-nato","subtype":"submarine","status":"active","country":"US","description":"Ohio-class SSBN base. Atlantic nuclear deterrent.","source":"official","approx":false},
  {"id":"kitsap","name":"Naval Base Kitsap","lat":47.56,"lon":-122.66,"type":"us-nato","subtype":"submarine","status":"active","country":"US","description":"Trident submarine base. Pacific nuclear deterrent.","source":"official","approx":false},
  {"id":"osan","name":"Osan AB","lat":37.09,"lon":127.03,"type":"us-nato","subtype":"airbase","status":"active","country":"US","description":"7th Air Force. A-10s, F-16s. 30min from DMZ.","source":"official","approx":false},
  {"id":"camp_humphreys","name":"Camp Humphreys","lat":36.96,"lon":127.03,"type":"us-nato","subtype":"army","status":"active","country":"US","description":"Largest US overseas base. USFK HQ.","source":"official","approx":false},
  {"id":"yokosuka","name":"Fleet Activities Yokosuka","lat":35.28,"lon":139.67,"type":"us-nato","subtype":"naval","status":"active","country":"US","description":"7th Fleet flagship homeport. Only forward-deployed carrier.","source":"official","approx":false},
  {"id":"kadena","name":"Kadena AB","lat":26.36,"lon":127.77,"type":"us-nato","subtype":"airbase","status":"active","country":"US","description":"Largest US Air Force base in Asia. F-22, KC-135.","source":"official","approx":false},
  {"id":"camp_foster","name":"Camp Foster (Okinawa)","lat":26.27,"lon":127.75,"type":"us-nato","subtype":"marines","status":"active","country":"US","description":"III MEF HQ. USMC Pacific hub.","source":"official","approx":false},
  {"id":"andersen_afb","name":"Andersen AFB (Guam)","lat":13.58,"lon":144.93,"type":"us-nato","subtype":"airbase","status":"active","country":"US","description":"B-2, B-52 deployments. Pacific strategic strike.","source":"official","approx":false},
  {"id":"al_udeid","name":"Al Udeid AB","lat":25.12,"lon":51.31,"type":"us-nato","subtype":"airbase","status":"active","country":"US","description":"CENTCOM forward HQ. Largest USAF base in ME.","source":"official","approx":false},
  {"id":"diego_garcia","name":"Naval Support Facility Diego Garcia","lat":-7.31,"lon":72.42,"type":"us-nato","subtype":"naval","status":"active","country":"US","description":"Indian Ocean strategic hub. B-2 staging, SSN support.","source":"official","approx":false},
  {"id":"ramstein","name":"Ramstein AB","lat":49.44,"lon":7.6,"type":"us-nato","subtype":"airbase","status":"active","country":"US","description":"USAFE HQ. Air Mobility Command hub. Drone ops control.","source":"official","approx":false},
  {"id":"incirlik","name":"Incirlik AB","lat":37.0,"lon":35.43,"type":"us-nato","subtype":"airbase","status":"active","country":"US","description":"US/Turkish base. B61 nuclear bombs stored. Syrian ops.","source":"official","approx":false},
  {"id":"rota","name":"Naval Station Rota","lat":36.62,"lon":-6.35,"type":"us-nato","subtype":"naval","status":"active","country":"US","description":"DDG homeport. Ballistic Missile Defense ships.","source":"official","approx":false},
  {"id":"sigonella","name":"NAS Sigonella","lat":37.41,"lon":14.92,"type":"us-nato","subtype":"naval","status":"active","country":"US","description":"P-8 ASW. ISR hub for Mediterranean and Africa.","source":"official","approx":false},
  {"id":"grafenwoehr","name":"Grafenwoehr Training Area","lat":49.7,"lon":11.9,"type":"us-nato","subtype":"army","status":"active","country":"US","description":"Largest US Army training area in Europe.","source":"official","approx":false},
  {"id":"camp_lemonnier","name":"Camp Lemonnier","lat":11.55,"lon":43.14,"type":"us-nato","subtype":"army","status":"active","country":"US","description":"CJTF-HOA. East Africa CT operations. Drone base.","source":"official","approx":false},
  {"id":"bagram","name":"Bagram Airfield (former)","lat":34.94,"lon":69.26,"type":"us-nato","subtype":"airbase","status":"inactive","country":"US","description":"Former largest US base in Afghanistan. Abandoned 2021.","source":"official","approx":false},
  {"id":"thule","name":"Thule AB (Pituffik SB)","lat":76.53,"lon":-68.7,"type":"us-nato","subtype":"airbase","status":"active","country":"US","description":"Northernmost US base. Ballistic Missile Early Warning.","source":"official","approx":false},
  {"id":"whiteman_afb","name":"Whiteman AFB","lat":38.72,"lon":-93.55,"type":"us-nato","subtype":"airbase","status":"active","country":"US","description":"B-2 Spirit stealth bomber wing. Nuclear strike.","source":"official","approx":false},
  {"id":"minot_afb","name":"Minot AFB","lat":48.41,"lon":-101.35,"type":"us-nato","subtype":"airbase","status":"active","country":"US","description":"B-52H wing + ICBM fields. Dual nuclear mission.","source":"official","approx":false},
  {"id":"vandenberg_sfb","name":"Vandenberg SFB","lat":34.74,"lon":-120.57,"type":"us-nato","subtype":"space","status":"active","country":"US","description":"West Coast ICBM test launches. Space launch facility.","source":"official","approx":false},

  {"id":"kaliningrad_base","name":"Kaliningrad Military District","lat":54.71,"lon":20.51,"type":"russia","subtype":"command","status":"active","country":"RU","description":"Baltic Fleet HQ. Iskander-M missiles. NATO flank threat.","source":"official","approx":false},
  {"id":"sevastopol","name":"Sevastopol Naval Base","lat":44.62,"lon":33.53,"type":"russia","subtype":"naval","status":"active","country":"RU","description":"Black Sea Fleet HQ (occupied Crimea). Contested.","source":"official","approx":false},
  {"id":"vladivostok_navy","name":"Vladivostok Pacific Fleet HQ","lat":43.12,"lon":131.9,"type":"russia","subtype":"naval","status":"active","country":"RU","description":"Pacific Fleet. Nuclear submarines. SSBNs.","source":"official","approx":false},
  {"id":"murmansk_fleet","name":"Murmansk Northern Fleet","lat":68.97,"lon":33.09,"type":"russia","subtype":"naval","status":"active","country":"RU","description":"Russia's primary nuclear submarine force. Typhoon/Borei class.","source":"official","approx":false},
  {"id":"engels_afb","name":"Engels Airbase","lat":51.46,"lon":46.15,"type":"russia","subtype":"airbase","status":"active","country":"RU","description":"Tu-160 and Tu-95 strategic bombers. Nuclear strike.","source":"official","approx":false},
  {"id":"olenya_afb","name":"Olenya Air Base","lat":68.15,"lon":33.46,"type":"russia","subtype":"airbase","status":"active","country":"RU","description":"Tu-22M3 bombers. Arctic strike missions.","source":"official","approx":false},
  {"id":"latakia_hmm","name":"Hmeimim Air Base (Syria)","lat":35.4,"lon":35.95,"type":"russia","subtype":"airbase","status":"active","country":"RU","description":"Russia's Syrian hub. Su-35, S-400. Mediterranean presence.","source":"official","approx":false},
  {"id":"tartus_naval","name":"Tartus Naval Facility","lat":34.89,"lon":35.88,"type":"russia","subtype":"naval","status":"active","country":"RU","description":"Only Russian Mediterranean naval base. Replenishment port.","source":"official","approx":false},
  {"id":"kapustin_yar","name":"Kapustin Yar Missile Range","lat":48.56,"lon":45.8,"type":"russia","subtype":"missile","status":"active","country":"RU","description":"Missile test range. IRBM and ICBM testing. Space launches.","source":"official","approx":false},
  {"id":"plesetsk_cosmodrome","name":"Plesetsk Cosmodrome","lat":62.93,"lon":40.57,"type":"russia","subtype":"space","status":"active","country":"RU","description":"Military space launches. ICBM test site.","source":"official","approx":false},
  {"id":"novorossiysk_naval","name":"Novorossiysk Naval Base","lat":44.76,"lon":37.77,"type":"russia","subtype":"naval","status":"active","country":"RU","description":"Black Sea Fleet secondary base. Protected from Crimea threats.","source":"official","approx":false},
  {"id":"ryazan_air","name":"Dyagilevo Air Base (Ryazan)","lat":54.61,"lon":39.58,"type":"russia","subtype":"airbase","status":"active","country":"RU","description":"Long-range aviation. Tu-22M3 bombers. Ukraine strike ops.","source":"official","approx":false},
  {"id":"ukraine_khmelnytskyi","name":"Khmelnytskyi Air Base","lat":49.69,"lon":26.93,"type":"ukraine","subtype":"airbase","status":"active","country":"UA","description":"Ukrainian Air Force. MiG-29, Su-27 operations.","source":"official","approx":false},
  {"id":"myrhorod","name":"Myrhorod Air Base","lat":49.98,"lon":33.62,"type":"ukraine","subtype":"airbase","status":"active","country":"UA","description":"F-16 base (2024+). Training for Western jets.","source":"official","approx":false},

  {"id":"shenyang_milreg","name":"Shenyang Military Region HQ","lat":41.8,"lon":123.43,"type":"china","subtype":"command","status":"active","country":"CN","description":"PLA Northern Theater Command. Korea/Manchuria focus.","source":"official","approx":false},
  {"id":"beijing_milreg","name":"Beijing Military Region/Central Theater","lat":39.92,"lon":116.38,"type":"china","subtype":"command","status":"active","country":"CN","description":"Central Theater Command. Capital defense. CMC support.","source":"official","approx":false},
  {"id":"nanjing_milreg","name":"Nanjing/Eastern Theater Command","lat":32.06,"lon":118.79,"type":"china","subtype":"command","status":"active","country":"CN","description":"Eastern Theater Command. Taiwan Strait operations focus.","source":"official","approx":false},
  {"id":"guangzhou_milreg","name":"Guangzhou/Southern Theater Command","lat":23.13,"lon":113.26,"type":"china","subtype":"command","status":"active","country":"CN","description":"Southern Theater Command. South China Sea operations.","source":"official","approx":false},
  {"id":"chengdu_milreg","name":"Chengdu/Western Theater Command","lat":30.67,"lon":104.07,"type":"china","subtype":"command","status":"active","country":"CN","description":"Western Theater Command. India border, Tibet, Xinjiang.","source":"official","approx":false},
  {"id":"lanzhou_milreg","name":"Lanzhou Command (Western Theater)","lat":36.06,"lon":103.83,"type":"china","subtype":"command","status":"active","country":"CN","description":"Western Theater secondary. Central Asia focus.","source":"official","approx":false},
  {"id":"dalian_naval","name":"Dalian Naval Base","lat":38.91,"lon":121.62,"type":"china","subtype":"naval","status":"active","country":"CN","description":"Major PLAN surface fleet base. Carrier Liaoning homeport.","source":"official","approx":false},
  {"id":"qingdao_naval","name":"Qingdao North Sea Fleet HQ","lat":36.07,"lon":120.33,"type":"china","subtype":"naval","status":"active","country":"CN","description":"North Sea Fleet. Surface combatants and SSNs.","source":"official","approx":false},
  {"id":"yulin_naval","name":"Yulin Naval Base (Hainan)","lat":18.22,"lon":109.55,"type":"china","subtype":"naval","status":"active","country":"CN","description":"Underground submarine base. SSBN operations. Type 094.","source":"official","approx":false},
  {"id":"zhoushan_naval","name":"Zhoushan Naval Base","lat":29.99,"lon":122.21,"type":"china","subtype":"naval","status":"active","country":"CN","description":"East Sea Fleet. Carrier operations. Taiwan contingency.","source":"official","approx":false},
  {"id":"fuzhou_airbase","name":"Fuzhou Air Base","lat":25.93,"lon":119.32,"type":"china","subtype":"airbase","status":"active","country":"CN","description":"Opposite Taiwan Strait. Su-30MK2, J-11 fighters.","source":"official","approx":false},
  {"id":"longtian_airbase","name":"Longtian Air Base","lat":25.67,"lon":119.3,"type":"china","subtype":"airbase","status":"active","country":"CN","description":"Taiwan Strait air ops. J-16 strike fighters.","source":"official","approx":false},
  {"id":"jiaxing_airbase","name":"Jiaxing Air Base","lat":30.77,"lon":120.87,"type":"china","subtype":"airbase","status":"active","country":"CN","description":"Eastern Theater air forces. J-20 stealth fighters.","source":"official","approx":true},
  {"id":"xian_airbase","name":"Xi'an Yanliang Air Base","lat":34.65,"lon":109.17,"type":"china","subtype":"airbase","status":"active","country":"CN","description":"H-6 bomber base. PLAAF flight test center.","source":"official","approx":false},
  {"id":"lhasa_airbase","name":"Lhasa Gonggar Air Base","lat":29.3,"lon":90.91,"type":"china","subtype":"airbase","status":"active","country":"CN","description":"Tibet. J-11 fighters. India border pressure base.","source":"official","approx":false},
  {"id":"hotan_airbase","name":"Hotan Air Base","lat":37.04,"lon":79.86,"type":"china","subtype":"airbase","status":"active","country":"CN","description":"Xinjiang. Near India border. J-8, J-11 fighters.","source":"official","approx":false},
  {"id":"kashgar_base","name":"Kashgar Military Garrison","lat":39.47,"lon":75.99,"type":"china","subtype":"army","status":"active","country":"CN","description":"Westernmost garrison. Central Asia/Pakistan border. Expanding.","source":"osint","approx":true},
  {"id":"ngari_base","name":"Ngari Gunsa Air Base","lat":32.1,"lon":80.05,"type":"china","subtype":"airbase","status":"active","country":"CN","description":"World's highest-altitude air base. Near India/Nepal/Pakistan.","source":"official","approx":false},
  {"id":"shigatse_airbase","name":"Shigatse Peace Airport (dual-use)","lat":29.35,"lon":89.31,"type":"china","subtype":"airbase","status":"active","country":"CN","description":"Military-civil airport. Tibet. Near Bhutan/India borders.","source":"osint","approx":true},
  {"id":"golmud_base","name":"Golmud Missile Base","lat":36.4,"lon":94.9,"type":"china","subtype":"missile","status":"active","country":"CN","description":"DF-41 ICBM silos expanding (satellite imagery). Qinghai.","source":"satellite","approx":true},
  {"id":"yumen_icbm","name":"Yumen ICBM Field","lat":40.5,"lon":97.03,"type":"china","subtype":"missile","status":"construction","country":"CN","description":"~120 new DF-41 ICBM silos (2021 satellite imagery). Under construction.","source":"satellite","approx":true},
  {"id":"hami_icbm","name":"Hami ICBM Field","lat":43.05,"lon":93.6,"type":"china","subtype":"missile","status":"construction","country":"CN","description":"~110 new ICBM silos. Xinjiang nuclear expansion.","source":"satellite","approx":true},
  {"id":"ordos_icbm","name":"Ordos ICBM Field","lat":39.7,"lon":108.5,"type":"china","subtype":"missile","status":"active","country":"CN","description":"DF-5B silo field. Inner Mongolia. Older ICBM complex.","source":"satellite","approx":true},
  {"id":"djibouti_pla","name":"PLA Support Base Djibouti","lat":11.56,"lon":43.08,"type":"china","subtype":"naval","status":"active","country":"CN","description":"China's first overseas military base. Logistics/ISR hub.","source":"official","approx":false},
  {"id":"ream_naval","name":"Ream Naval Base (Cambodia)","lat":10.55,"lon":103.68,"type":"china","subtype":"naval","status":"construction","country":"CN","description":"Chinese-built/used pier expanding. Controversial dual-use.","source":"satellite","approx":true},
  {"id":"gwadar_base","name":"Gwadar Port (CPEC military use)","lat":25.12,"lon":62.33,"type":"china","subtype":"naval","status":"active","country":"CN","description":"Pakistani port with Chinese facilities. IOR access point.","source":"osint","approx":true},
  {"id":"pla_myanmar_signals","name":"Myanmar Signals Station (Great Coco Island)","lat":14.1,"lon":93.36,"type":"china","subtype":"intel","status":"active","country":"CN","description":"Alleged PLA signals intelligence station. Indian Ocean monitoring.","source":"osint","approx":true},
  {"id":"south_china_sea_fiery_cross","name":"Fiery Cross Reef (Yongshu Jiao)","lat":9.55,"lon":112.89,"type":"china","subtype":"airbase","status":"active","country":"CN","description":"Artificial island. 3km runway, hangar for 24 fighters. J-11B deployed.","source":"satellite","approx":false},
  {"id":"south_china_sea_mischief","name":"Mischief Reef (Meiji Jiao)","lat":9.91,"lon":115.53,"type":"china","subtype":"naval","status":"active","country":"CN","description":"Largest SCS artificial island. Naval port, barracks, runway.","source":"satellite","approx":false},
  {"id":"south_china_sea_subi","name":"Subi Reef (Zhubi Jiao)","lat":10.92,"lon":114.08,"type":"china","subtype":"airbase","status":"active","country":"CN","description":"3km runway. Radar arrays. HQ-9 SAMs installed.","source":"satellite","approx":false},
  {"id":"woody_island_pla","name":"Woody Island (Yongxing Dao)","lat":16.83,"lon":112.34,"type":"china","subtype":"airbase","status":"active","country":"CN","description":"J-10, J-11 fighters. HQ-9 SAMs. Paracel Islands HQ.","source":"satellite","approx":false},
  {"id":"wuhan_airbase","name":"Wuhan Air Base","lat":30.61,"lon":114.21,"type":"china","subtype":"airbase","status":"active","country":"CN","description":"Central Theater. J-20 stealth fighters reportedly stationed.","source":"osint","approx":true},

  {"id":"india_southern_cmd","name":"Southern Army Command (Pune)","lat":18.52,"lon":73.87,"type":"india","subtype":"command","status":"active","country":"IN","description":"Southern Army Command HQ. Deccan Plateau defense.","source":"official","approx":false},
  {"id":"india_northern_cmd","name":"Northern Army Command (Udhampur)","lat":32.93,"lon":75.14,"type":"india","subtype":"command","status":"active","country":"IN","description":"Northern Command HQ. Jammu & Kashmir operations.","source":"official","approx":false},
  {"id":"india_western_cmd","name":"Western Army Command (Chandigarh)","lat":30.74,"lon":76.79,"type":"india","subtype":"command","status":"active","country":"IN","description":"Western Command. Pakistan border. Strike Corps.","source":"official","approx":false},
  {"id":"india_eastern_cmd","name":"Eastern Army Command (Kolkata)","lat":22.57,"lon":88.36,"type":"india","subtype":"command","status":"active","country":"IN","description":"Eastern Command. China LAC / Myanmar border.","source":"official","approx":false},
  {"id":"india_central_cmd","name":"Central Army Command (Lucknow)","lat":26.85,"lon":80.95,"type":"india","subtype":"command","status":"active","country":"IN","description":"Central Command HQ. Strategic reserve.","source":"official","approx":false},
  {"id":"india_airforce_western","name":"WAC HQ Palam (Delhi)","lat":28.56,"lon":77.09,"type":"india","subtype":"airbase","status":"active","country":"IN","description":"Western Air Command HQ. Palam Air Base. Delhi defense.","source":"official","approx":false},
  {"id":"ambala_airbase","name":"Ambala Air Force Station","lat":30.37,"lon":76.82,"type":"india","subtype":"airbase","status":"active","country":"IN","description":"Rafale base (No. 17 Sqn). Closest Indian air base to Pakistan.","source":"official","approx":false},
  {"id":"pathankot_airbase","name":"Pathankot Air Force Station","lat":32.24,"lon":75.63,"type":"india","subtype":"airbase","status":"active","country":"IN","description":"Frontline base. Attacked by terrorists 2016. Near Pakistan border.","source":"official","approx":false},
  {"id":"srinagar_airbase","name":"Srinagar Air Force Station","lat":34.0,"lon":74.77,"type":"india","subtype":"airbase","status":"active","country":"IN","description":"Jammu & Kashmir. Forward air base. MiG-21, Mi-17 helicopters.","source":"official","approx":false},
  {"id":"awantipora_airbase","name":"Awantipora Air Force Station","lat":33.77,"lon":75.0,"type":"india","subtype":"airbase","status":"active","country":"IN","description":"Kashmir Valley. MiG-21 Bison. Forward base against Pakistan.","source":"official","approx":false},
  {"id":"leh_airbase","name":"Leh Air Force Station (Kushok Bakula)","lat":34.14,"lon":77.55,"type":"india","subtype":"airbase","status":"active","country":"IN","description":"Ladakh. World's highest-altitude airbase at ~3,256m. China LAC ops.","source":"official","approx":false},
  {"id":"thoise_airbase","name":"Thoise Air Force Station","lat":34.63,"lon":77.32,"type":"india","subtype":"airbase","status":"active","country":"IN","description":"Siachen operations. Northernmost IAF base. High altitude.","source":"official","approx":false},
  {"id":"hindon_airbase","name":"Hindon Air Force Station","lat":28.71,"lon":77.41,"type":"india","subtype":"airbase","status":"active","country":"IN","description":"Near Delhi. C-130J, C-17, Il-76 transport hub.","source":"official","approx":false},
  {"id":"agra_airbase","name":"Agra Air Force Station","lat":27.16,"lon":77.96,"type":"india","subtype":"airbase","status":"active","country":"IN","description":"Para SF operations. C-130J, Il-76 transport. Airborne ops.","source":"official","approx":false},
  {"id":"jodhpur_airbase","name":"Jodhpur Air Force Station","lat":26.25,"lon":72.94,"type":"india","subtype":"airbase","status":"active","country":"IN","description":"Rajasthan desert. Su-30MKI fighters. Pakistan border.","source":"official","approx":false},
  {"id":"jaisalmer_airbase","name":"Jaisalmer Air Force Station","lat":27.15,"lon":70.85,"type":"india","subtype":"airbase","status":"active","country":"IN","description":"Forward desert base. Near Pakistan. Training area.","source":"official","approx":false},
  {"id":"suratgarh_airbase","name":"Suratgarh Air Force Station","lat":29.33,"lon":73.85,"type":"india","subtype":"airbase","status":"active","country":"IN","description":"Rajasthan. MiG-27 (retired). Su-30MKI operations.","source":"official","approx":false},
  {"id":"uttarlai_airbase","name":"Uttarlai Air Force Station","lat":25.84,"lon":71.95,"type":"india","subtype":"airbase","status":"active","country":"IN","description":"Pakistan border. Frontline fighter base.","source":"official","approx":false},
  {"id":"nal_airbase","name":"NAL (Bikaner) Air Force Station","lat":27.64,"lon":73.14,"type":"india","subtype":"airbase","status":"active","country":"IN","description":"Bikaner. Desert operations. Forward strike capability.","source":"official","approx":false},
  {"id":"bareilly_airbase","name":"Bareilly Air Force Station","lat":28.42,"lon":79.45,"type":"india","subtype":"airbase","status":"active","country":"IN","description":"UP. Jaguar maritime strike aircraft.","source":"official","approx":false},
  {"id":"gwalior_airbase","name":"Gwalior Air Force Station","lat":26.29,"lon":78.23,"type":"india","subtype":"airbase","status":"active","country":"IN","description":"Home of No. 7 (Battle Axes) Sqn. Mirage 2000. Nuclear capable.","source":"official","approx":false},
  {"id":"pune_airbase","name":"Lohegaon Air Force Station (Pune)","lat":18.58,"lon":73.91,"type":"india","subtype":"airbase","status":"active","country":"IN","description":"Southern Air Command. MiG-29 fighters.","source":"official","approx":false},
  {"id":"yelahanka_airbase","name":"Yelahanka Air Force Station (Bengaluru)","lat":13.13,"lon":77.6,"type":"india","subtype":"airbase","status":"active","country":"IN","description":"Aero India biennial airshow venue. HAL test facility.","source":"official","approx":false},
  {"id":"sulur_airbase","name":"Sulur Air Force Station (Coimbatore)","lat":11.02,"lon":77.08,"type":"india","subtype":"airbase","status":"active","country":"IN","description":"Tamil Nadu. Su-30MKI. Closest IAF base to Sri Lanka.","source":"official","approx":false},
  {"id":"tambaram_airbase","name":"Tambaram Air Force Station","lat":12.92,"lon":80.11,"type":"india","subtype":"airbase","status":"active","country":"IN","description":"Chennai suburb. HAL facility. Helicopter training.","source":"official","approx":false},
  {"id":"begumpet_airbase","name":"Begumpet Air Force Station (Hyderabad)","lat":17.45,"lon":78.47,"type":"india","subtype":"airbase","status":"active","country":"IN","description":"Deccan area. BEL defense electronics nearby.","source":"official","approx":false},
  {"id":"tezpur_airbase","name":"Tezpur Air Force Station","lat":26.71,"lon":92.78,"type":"india","subtype":"airbase","status":"active","country":"IN","description":"Assam. Su-30MKI. Near China border (Arunachal Pradesh).","source":"official","approx":false},
  {"id":"chabua_airbase","name":"Chabua Air Force Station","lat":27.48,"lon":95.12,"type":"india","subtype":"airbase","status":"active","country":"IN","description":"Assam. Near China border. Drones, helicopters.","source":"official","approx":false},
  {"id":"hashimara_airbase","name":"Hashimara Air Force Station","lat":26.7,"lon":89.37,"type":"india","subtype":"airbase","status":"active","country":"IN","description":"Dooars, West Bengal. Su-30MKI. Bhutan/China border area.","source":"official","approx":false},
  {"id":"bagdogra_airbase","name":"Bagdogra Air Force Station","lat":26.68,"lon":88.33,"type":"india","subtype":"airbase","status":"active","country":"IN","description":"Siliguri corridor (Chicken's Neck). Vital northeast link.","source":"official","approx":false},
  {"id":"kalaikunda_airbase","name":"Kalaikunda Air Force Station","lat":22.34,"lon":87.2,"type":"india","subtype":"airbase","status":"active","country":"IN","description":"West Bengal. Jaguar maritime strike. Bay of Bengal.","source":"official","approx":false},
  {"id":"car_nicobar_airbase","name":"INS Campbell/CAR Nicobar","lat":9.15,"lon":92.82,"type":"india","subtype":"airbase","status":"active","country":"IN","description":"Nicobar Islands. Andaman & Nicobar Command. Malacca Strait watch.","source":"official","approx":false},
  {"id":"andaman_naval","name":"INS Jarawa (Andaman Naval)","lat":11.65,"lon":92.73,"type":"india","subtype":"naval","status":"active","country":"IN","description":"Andaman & Nicobar naval command. Malacca Strait surveillance.","source":"official","approx":false},
  {"id":"mumbai_naval","name":"INS Shikra / Mumbai Naval","lat":18.97,"lon":72.82,"type":"india","subtype":"naval","status":"active","country":"IN","description":"Western Naval Command. Carrier INS Vikrant homeport.","source":"official","approx":false},
  {"id":"kochi_naval","name":"INS Garuda (Kochi Naval)","lat":9.96,"lon":76.27,"type":"india","subtype":"naval","status":"active","country":"IN","description":"Southern Naval Command. P-8I Poseidon ASW aircraft.","source":"official","approx":false},
  {"id":"visakhapatnam_naval","name":"HQENC Visakhapatnam","lat":17.69,"lon":83.28,"type":"india","subtype":"naval","status":"active","country":"IN","description":"Eastern Naval Command. Submarine base. Nuclear subs (S-3, S-4).","source":"official","approx":false},
  {"id":"karwar_naval","name":"INS Kadamba (Karwar)","lat":14.82,"lon":74.13,"type":"india","subtype":"naval","status":"construction","country":"IN","description":"Project Seabird - massive naval expansion. Carrier and SSN base.","source":"official","approx":false},
  {"id":"india_rocket_force","name":"Strategic Forces Command (SFC)","lat":28.6,"lon":77.2,"type":"india","subtype":"missile","status":"active","country":"IN","description":"Nuclear weapons and delivery systems. Agni-V ICBMs. Approximate location.","source":"osint","approx":true},
  {"id":"chandipur_missile","name":"Chandipur Integrated Test Range","lat":21.48,"lon":87.06,"type":"india","subtype":"missile","status":"active","country":"IN","description":"Missile testing range. BrahMos, Agni, Prithvi tests.","source":"official","approx":false},
  {"id":"pokhran_nuclear","name":"Pokhran Test Range","lat":26.93,"lon":71.73,"type":"india","subtype":"nuclear","status":"active","country":"IN","description":"Nuclear weapons test site (1974, 1998). Potential future tests.","source":"official","approx":false},
  {"id":"ladakh_forward","name":"Daulat Beg Oldie (DBO) Advanced Base","lat":35.43,"lon":77.68,"type":"india","subtype":"army","status":"active","country":"IN","description":"World's highest airstrip. LAC patrol base. China standoff area.","source":"official","approx":false},
  {"id":"pangong_forward","name":"Pangong Lake Forward Positions","lat":33.75,"lon":79.0,"type":"india","subtype":"army","status":"active","country":"IN","description":"India-China standoff 2020. Advanced fortifications. Finger 8 area.","source":"osint","approx":true},
  {"id":"galwan_base","name":"Galwan Valley Forward Post","lat":34.62,"lon":78.24,"type":"india","subtype":"army","status":"active","country":"IN","description":"2020 India-China clash site. Now fortified. Video surveillance.","source":"official","approx":true},
  {"id":"india_ew_forward","name":"Siachen Base Camp / Gyari","lat":35.0,"lon":77.42,"type":"india","subtype":"army","status":"active","country":"IN","description":"Siachen Glacier operations. Highest battlefield. Pakistan line.","source":"official","approx":true},

  {"id":"pak_northern_cmd","name":"Pakistan Northern Command (Rawalpindi)","lat":33.6,"lon":73.04,"type":"pakistan","subtype":"command","status":"active","country":"PK","description":"GHQ Rawalpindi. Pakistan Army main HQ.","source":"official","approx":false},
  {"id":"pak_airhq","name":"Pakistan Air Force HQ (Islamabad)","lat":33.63,"lon":73.06,"type":"pakistan","subtype":"command","status":"active","country":"PK","description":"PAF Headquarters. Chaklala Air Base collocated.","source":"official","approx":false},
  {"id":"pak_naval_hq","name":"Pakistan Naval HQ (Islamabad)","lat":33.6,"lon":73.09,"type":"pakistan","subtype":"command","status":"active","country":"PK","description":"Naval HQ. Pakistan Navy strategic planning.","source":"official","approx":false},
  {"id":"pak_spd","name":"Strategic Plans Division (SPD)","lat":33.6,"lon":73.05,"type":"pakistan","subtype":"nuclear","status":"active","country":"PK","description":"Controls Pakistan's nuclear arsenal. Rawalpindi area. Approx location.","source":"osint","approx":true},
  {"id":"kamra_airbase","name":"PAF Base Kamra (Minhas)","lat":33.87,"lon":72.4,"type":"pakistan","subtype":"airbase","status":"active","country":"PK","description":"Aircraft manufacturing (JF-17). F-16 major maintenance. PARS system.","source":"official","approx":false},
  {"id":"sargodha_airbase","name":"PAF Base Sargodha (Mushaf)","lat":32.05,"lon":72.67,"type":"pakistan","subtype":"airbase","status":"active","country":"PK","description":"F-16 wing. Possible nuclear delivery role. Central Punjab.","source":"official","approx":false},
  {"id":"shahbaz_airbase","name":"PAF Base Shahbaz (Jacobabad)","lat":28.28,"lon":68.45,"type":"pakistan","subtype":"airbase","status":"active","country":"PK","description":"Jacobabad. Used by US for Afghanistan ops. JF-17 wing.","source":"official","approx":false},
  {"id":"masroor_airbase","name":"PAF Base Masroor (Karachi)","lat":24.9,"lon":66.94,"type":"pakistan","subtype":"airbase","status":"active","country":"PK","description":"Karachi coast. JF-17, Mirage III/V. Naval air ops.","source":"official","approx":false},
  {"id":"peshawar_afb","name":"PAF Base Peshawar (Badaber)","lat":33.88,"lon":71.52,"type":"pakistan","subtype":"airbase","status":"active","country":"PK","description":"KPK. Drones surveillance. SIGINT history. Afghanistan border.","source":"official","approx":false},
  {"id":"bholari_airbase","name":"PAF Base Bholari","lat":25.25,"lon":68.06,"type":"pakistan","subtype":"airbase","status":"active","country":"PK","description":"New base near Sindh coast. JF-17 fighter wing. Southern defense.","source":"official","approx":false},
  {"id":"nur_khan_airbase","name":"PAF Base Nur Khan (Chaklala)","lat":33.62,"lon":73.07,"type":"pakistan","subtype":"airbase","status":"active","country":"PK","description":"Air Mobility. C-130, Saab 2000. PM and VIP transport. Islamabad.","source":"official","approx":false},
  {"id":"faisal_airbase","name":"PAF Base Faisal (Karachi)","lat":24.89,"lon":67.22,"type":"pakistan","subtype":"airbase","status":"active","country":"PK","description":"Maritime patrol. P-3C Orion ASW aircraft. MARPAT hub.","source":"official","approx":false},
  {"id":"pns_mehran","name":"PNS Mehran (Karachi Naval Air)","lat":24.9,"lon":67.17,"type":"pakistan","subtype":"naval","status":"active","country":"PK","description":"Naval air station. P-3C Orion. Attacked by TTP 2011.","source":"official","approx":false},
  {"id":"pns_iqbal","name":"PNS Iqbal (Karachi Naval)","lat":24.86,"lon":66.96,"type":"pakistan","subtype":"naval","status":"active","country":"PK","description":"Pakistan Navy HQ West. Karachi port defense.","source":"official","approx":false},
  {"id":"ormara_naval","name":"PNS Akram (Ormara Naval)","lat":25.2,"lon":64.64,"type":"pakistan","subtype":"naval","status":"active","country":"PK","description":"Arabian Sea naval base. Expanding with China assistance. Submarine support.","source":"satellite","approx":false},
  {"id":"gwadar_naval","name":"Gwadar Naval Base / PNS Siddiq","lat":25.11,"lon":62.32,"type":"pakistan","subtype":"naval","status":"construction","country":"PK","description":"CPEC endpoint. Chinese-built port. Future submarine operations hub.","source":"satellite","approx":false},
  {"id":"wah_ordnance","name":"Wah Ordnance Factories","lat":33.77,"lon":72.76,"type":"pakistan","subtype":"nuclear","status":"active","country":"PK","description":"Nuclear weapon component manufacturing. Plutonium pit production. Approx.","source":"osint","approx":true},
  {"id":"khushab_nuclear","name":"Khushab Nuclear Complex","lat":32.07,"lon":72.2,"type":"pakistan","subtype":"nuclear","status":"active","country":"PK","description":"4 plutonium production reactors. Heavy water plant. Core of Pakistan's bomb program.","source":"satellite","approx":false},
  {"id":"kahuta_nuclear","name":"Khan Research Laboratories (KRL) Kahuta","lat":33.67,"lon":73.39,"type":"pakistan","subtype":"nuclear","status":"active","country":"PK","description":"Uranium enrichment for nuclear weapons. A.Q. Khan lab. HEU production.","source":"official","approx":false},
  {"id":"gadwal_nuclear","name":"Dera Ghazi Khan Nuclear Site","lat":30.05,"lon":70.55,"type":"pakistan","subtype":"nuclear","status":"active","country":"PK","description":"Uranium conversion and milling. Nuclear fuel cycle. DG Khan area.","source":"satellite","approx":false},
  {"id":"pak_missile_site","name":"Tarnawa Missile Development Site","lat":33.65,"lon":73.09,"type":"pakistan","subtype":"missile","status":"active","country":"PK","description":"Shaheen, Babur cruise missile development. Near Rawalpindi. Approx.","source":"osint","approx":true},
  {"id":"siachen_pak","name":"Siachen Operations Base (Pakistani side)","lat":35.5,"lon":77.1,"type":"pakistan","subtype":"army","status":"active","country":"PK","description":"Sia La/Bilafond La posts. Pakistani glacier positions vs India.","source":"official","approx":true},
  {"id":"swat_corps","name":"Corps HQ Peshawar (XI Corps)","lat":34.01,"lon":71.58,"type":"pakistan","subtype":"army","status":"active","country":"PK","description":"Pakistan Army XI Corps. Afghanistan border ops. TTP ops.","source":"official","approx":false},
  {"id":"quetta_corps","name":"Corps HQ Quetta (XII Corps)","lat":30.18,"lon":66.99,"type":"pakistan","subtype":"army","status":"active","country":"PK","description":"Balochistan Corps. Iran border. BLA insurgency ops.","source":"official","approx":false},

  {"id":"raf_akrotiri","name":"RAF Akrotiri (Cyprus)","lat":34.59,"lon":32.99,"type":"uk","subtype":"airbase","status":"active","country":"GB","description":"Sovereign Base Area. Typhoon, Sentinel ISR. Middle East hub.","source":"official","approx":false},
  {"id":"raf_marham","name":"RAF Marham","lat":52.65,"lon":0.55,"type":"uk","subtype":"airbase","status":"active","country":"GB","description":"F-35B Lightning II wing. UK's primary stealth strike base.","source":"official","approx":false},
  {"id":"raf_brize_norton","name":"RAF Brize Norton","lat":51.75,"lon":-1.58,"type":"uk","subtype":"airbase","status":"active","country":"GB","description":"UK Air Mobility. A400M, C-17, Voyager tankers.","source":"official","approx":false},
  {"id":"hmnd_portsmouth","name":"HMNB Portsmouth","lat":50.8,"lon":-1.11,"type":"uk","subtype":"naval","status":"active","country":"GB","description":"QE-class carrier homeport. HMS Queen Elizabeth, Prince of Wales.","source":"official","approx":false},
  {"id":"hmnb_faslane","name":"HMNB Clyde (Faslane)","lat":56.08,"lon":-4.84,"type":"uk","subtype":"submarine","status":"active","country":"GB","description":"UK SSBN base. Trident nuclear deterrent. Astute SSN.","source":"official","approx":false},
  {"id":"clairfontaine_base","name":"Clairfontaine French Base","lat":48.7,"lon":1.73,"type":"france","subtype":"army","status":"active","country":"FR","description":"French army training. Special forces support.","source":"official","approx":false},
  {"id":"france_djibouti_base","name":"FFDJ Djibouti","lat":11.53,"lon":43.14,"type":"france","subtype":"army","status":"active","country":"FR","description":"France Forces in Djibouti. Legionnaire desert training.","source":"official","approx":false},
  {"id":"france_chad_base","name":"Barkhane/Chad Operations Base (N'Djamena)","lat":12.13,"lon":15.03,"type":"france","subtype":"airbase","status":"active","country":"FR","description":"French Sahel operations hub. Mirage 2000D. CT ops.","source":"official","approx":false},

  {"id":"israel_nevatim","name":"Nevatim Air Base","lat":31.21,"lon":34.99,"type":"israel","subtype":"airbase","status":"active","country":"IL","description":"F-35I Adir. Long-range strike capability. Iran raid staging.","source":"official","approx":false},
  {"id":"israel_ramon","name":"Ramon Air Base","lat":30.78,"lon":34.67,"type":"israel","subtype":"airbase","status":"active","country":"IL","description":"F-16C/D. Negev desert. Long-range mission staging.","source":"official","approx":false},
  {"id":"israel_hatzor","name":"Hatzor Air Base","lat":31.77,"lon":34.73,"type":"israel","subtype":"airbase","status":"active","country":"IL","description":"No. 101 Sqn F-16. Iron Dome training base.","source":"official","approx":false},
  {"id":"israel_palmachim","name":"Palmachim Air Base","lat":31.9,"lon":34.69,"type":"israel","subtype":"airbase","status":"active","country":"IL","description":"Jericho III IRBM launches. Spy satellite launches. MLRS.","source":"official","approx":false},
  {"id":"dimona_nuclear","name":"Negev Nuclear Research Centre (Dimona)","lat":30.99,"lon":35.15,"type":"israel","subtype":"nuclear","status":"active","country":"IL","description":"Estimated 80-400 nuclear warheads. Undeclared nuclear state.","source":"osint","approx":false},

  {"id":"iran_natanz","name":"Natanz Nuclear Enrichment","lat":33.72,"lon":51.73,"type":"iran","subtype":"nuclear","status":"active","country":"IR","description":"Iran's main uranium enrichment site. Deeply buried. 60% enriched.","source":"iaea","approx":false},
  {"id":"iran_fordow","name":"Fordow Fuel Enrichment Plant","lat":34.88,"lon":50.99,"type":"iran","subtype":"nuclear","status":"active","country":"IR","description":"Underground enrichment in mountain. Near Qom. Hardened target.","source":"iaea","approx":false},
  {"id":"iran_isfahan","name":"Isfahan Nuclear Technology Centre","lat":32.64,"lon":51.67,"type":"iran","subtype":"nuclear","status":"active","country":"IR","description":"Uranium conversion. R&D reactor. UCF facility.","source":"iaea","approx":false},
  {"id":"iran_bushehr","name":"Bushehr Nuclear Power Plant","lat":28.83,"lon":50.89,"type":"iran","subtype":"nuclear","status":"active","country":"IR","description":"Russia-built. 1000MW. Operational commercial reactor.","source":"iaea","approx":false},
  {"id":"iran_arak","name":"Arak IR-40 Heavy Water Reactor","lat":34.28,"lon":49.23,"type":"iran","subtype":"nuclear","status":"active","country":"IR","description":"Modified under JCPOA. Core poured with cement. IR-40 redesigned.","source":"iaea","approx":false},
  {"id":"iran_imam_ali","name":"Imam Ali Missile Base","lat":34.14,"lon":45.89,"type":"iran","subtype":"missile","status":"active","country":"IR","description":"IRGC underground missile complex. Zagros Mountains. Ballistic missiles.","source":"satellite","approx":true},
  {"id":"iran_shahrud","name":"Shahroud Space Center","lat":36.17,"lon":55.34,"type":"iran","subtype":"space","status":"active","country":"IR","description":"Missile/satellite launch site. Qadr IRBM tests. Dual-use facility.","source":"satellite","approx":false},

  {"id":"nk_yongbyon","name":"Yongbyon Nuclear Complex","lat":39.79,"lon":125.76,"type":"north_korea","subtype":"nuclear","status":"active","country":"KP","description":"5MWe reactor. Plutonium production. Uranium enrichment expanding.","source":"satellite","approx":false},
  {"id":"nk_punggye_ri","name":"Punggye-ri Nuclear Test Site","lat":41.29,"lon":129.09,"type":"north_korea","subtype":"nuclear","status":"active","country":"KP","description":"6 underground nuclear tests conducted. Tunnels partially collapsed. Can be revived.","source":"satellite","approx":false},
  {"id":"nk_sohae","name":"Sohae Satellite Launch Station","lat":39.66,"lon":124.71,"type":"north_korea","subtype":"space","status":"active","country":"KP","description":"Dongchang-ri. ICBM engine tests. Satellite launches (Malligyong-1).","source":"satellite","approx":false},
  {"id":"nk_hoejung_missile","name":"Hoejung-ni Missile Base","lat":39.15,"lon":126.77,"type":"north_korea","subtype":"missile","status":"active","country":"KP","description":"Hwasong-15/17 ICBM garrison. Operational ballistic missile unit.","source":"satellite","approx":true},
  {"id":"nk_sinpo_naval","name":"Sinpo Naval Shipyard","lat":40.0,"lon":128.2,"type":"north_korea","subtype":"naval","status":"active","country":"KP","description":"Submarine construction. Romeo-class, new SLBM subs. Kim Jong Un inspected.","source":"satellite","approx":false},

  {"id":"incirlik_turkey","name":"İncirlik Air Base (Turkish)","lat":37.0,"lon":35.43,"type":"turkey","subtype":"airbase","status":"active","country":"TR","description":"US/Turkish joint use. F-16 wing. Nuclear sharing location.","source":"official","approx":false},
  {"id":"konya_airbase","name":"Konya Air Base","lat":37.99,"lon":32.57,"type":"turkey","subtype":"airbase","status":"active","country":"TR","description":"Anatolian Eagle exercise. F-16 wing. Joint training.","source":"official","approx":false},
  {"id":"murbey_submarine","name":"Gölcük Naval Base","lat":40.66,"lon":29.86,"type":"turkey","subtype":"naval","status":"active","country":"TR","description":"Turkish Navy HQ. Submarine base. Black Sea fleet.","source":"official","approx":false},

  {"id":"saudi_prince_sultan","name":"Prince Sultan Air Base","lat":24.07,"lon":47.58,"type":"saudi","subtype":"airbase","status":"active","country":"SA","description":"US CENTCOM forward base. F-15s, THAAD. Air defense focus.","source":"official","approx":false},
  {"id":"saudi_taif","name":"King Fahd AB (Taif)","lat":21.47,"lon":40.55,"type":"saudi","subtype":"airbase","status":"active","country":"SA","description":"F-15SA. Southern defense. Yemen ops launch point.","source":"official","approx":false},
  {"id":"saudi_khamis","name":"Khamis Mushayt AB","lat":18.3,"lon":42.8,"type":"saudi","subtype":"airbase","status":"active","country":"SA","description":"Closest base to Yemen. Primary Saudi Yemen strike mission hub.","source":"official","approx":false},

  {"id":"uae_al_dhafra","name":"Al Dhafra Air Base","lat":24.25,"lon":54.55,"type":"uae","subtype":"airbase","status":"active","country":"AE","description":"Joint US-UAE base. F-35A, B-2. USAF largest CENTCOM base.","source":"official","approx":false},
  {"id":"egypt_cairo_west","name":"Cairo West Air Base","lat":30.12,"lon":30.92,"type":"egypt","subtype":"airbase","status":"active","country":"EG","description":"F-16, Rafale (from 2015). Primary EAF strike base.","source":"official","approx":false},

  {"id":"rok_suwon","name":"Suwon AB (ROK)","lat":37.24,"lon":127.01,"type":"south_korea","subtype":"airbase","status":"active","country":"KR","description":"ROK Air Force. F-4E, F-15K. Near Seoul.","source":"official","approx":false},
  {"id":"rok_osan_kr","name":"Osan Air Base (ROK 10th FW)","lat":37.09,"lon":127.03,"type":"south_korea","subtype":"airbase","status":"active","country":"KR","description":"ROK/USAF shared. 10th FW. F-16, KF-21 booked.","source":"official","approx":false},
  {"id":"rok_chinhae_naval","name":"Chinhae Naval Base","lat":35.14,"lon":128.67,"type":"south_korea","subtype":"naval","status":"active","country":"KR","description":"ROK Navy primary base. Destroyers, SSK submarines.","source":"official","approx":false},

  {"id":"japan_komatsu","name":"Komatsu Air Base (JASDF)","lat":36.39,"lon":136.41,"type":"japan","subtype":"airbase","status":"active","country":"JP","description":"F-15J fighters. Japan Sea defense. Close to Korea.","source":"official","approx":false},
  {"id":"japan_chitose","name":"Chitose Air Base (JASDF)","lat":42.79,"lon":141.67,"type":"japan","subtype":"airbase","status":"active","country":"JP","description":"Hokkaido. F-35A. Russia monitoring. Northern defense.","source":"official","approx":false},
  {"id":"japan_yokosuka_jmsdf","name":"JMSDF Yokosuka","lat":35.28,"lon":139.67,"type":"japan","subtype":"naval","status":"active","country":"JP","description":"JMSDF Surface Fleet. Izumo-class converted carrier. F-35B planned.","source":"official","approx":false},
  {"id":"japan_kure_naval","name":"JMSDF Kure Base","lat":34.23,"lon":132.55,"type":"japan","subtype":"naval","status":"active","country":"JP","description":"JMSDF primary ship repair and logistics hub.","source":"official","approx":false},
  {"id":"japan_yonaguni","name":"JGSDF Yonaguni Station","lat":24.47,"lon":122.96,"type":"japan","subtype":"army","status":"active","country":"JP","description":"Westernmost Japan. New base facing Taiwan. Radar, SHORAD.","source":"official","approx":false},
  {"id":"japan_ishigaki","name":"JGSDF Ishigaki Station","lat":24.39,"lon":124.18,"type":"japan","subtype":"army","status":"active","country":"JP","description":"New missile base. Type-12 anti-ship missiles. Taiwan Strait focus.","source":"official","approx":false},
  {"id":"japan_miyako","name":"JGSDF Miyako Station","lat":24.8,"lon":125.28,"type":"japan","subtype":"army","status":"active","country":"JP","description":"Ryukyu Islands. Ground-based SAMs and anti-ship missiles.","source":"official","approx":false},

  {"id":"australia_pine_gap","name":"Pine Gap Joint Facility","lat":-23.8,"lon":133.74,"type":"us-nato","subtype":"intel","status":"active","country":"AU","description":"NSA/CIA/ASD SIGINT facility. Satellite ground control. Five Eyes.","source":"official","approx":false},
  {"id":"australia_darwin","name":"RAAF Base Darwin","lat":-12.42,"lon":130.87,"type":"australia","subtype":"airbase","status":"active","country":"AU","description":"USMC rotational forces. F/A-18, B-52 visits. Near SCS.","source":"official","approx":false},
  {"id":"australia_perth_stirling","name":"HMAS Stirling (RAAF Pearce)","lat":-32.24,"lon":115.82,"type":"australia","subtype":"naval","status":"active","country":"AU","description":"RAN Collins SSK base. Future AUKUS SSN homeport.","source":"official","approx":false},

  {"id":"aukus_henderson_sub","name":"Henderson Submarine Base (AUKUS)","lat":-32.12,"lon":115.83,"type":"us-nato","subtype":"submarine","status":"construction","country":"AU","description":"AUKUS planned Virginia-class SSN homeport. Under planning/construction.","source":"official","approx":true}
]
